[
    {
        "Number": "1",
        "Latitude": "51.710725",
        "Longitude": "8.74646",
        "Address": "ARAL Station\nDKV-Nr: 0071439\nBorchener Str. 42\nDE-33098 Paderborn\nTel.: 05251 72335"
    },
    {
        "Number": "2",
        "Latitude": "51.732231",
        "Longitude": "8.764933",
        "Address": "ARAL Station\nDKV-Nr: 0070410\nDetmolder Str. 75\nDE-33100 Paderborn\nTel.: 05251 527584"
    },
    {
        "Number": "3",
        "Latitude": "51.712618",
        "Longitude": "8.736459",
        "Address": "ARAL Station\nDKV-Nr: 0010108\nBahnhofstr. 58\nDE-33102 Paderborn\nTel.: 05251 37111"
    },
    {
        "Number": "4",
        "Latitude": "51.726194",
        "Longitude": "8.735155",
        "Address": "Q1 Station\nDKV-Nr: 0049148\nNeuh\u00e4user Str. 102\nDE-33102 Paderborn\nTel.: 05251 870944"
    },
    {
        "Number": "5",
        "Latitude": "51.712153",
        "Longitude": "8.733916",
        "Address": "MARKANT Station\nDKV-Nr: 0096074\nBahnhofstr. 76\nDE-33102 Paderborn\nTel.: 05251 34367"
    },
    {
        "Number": "6",
        "Latitude": "51.703468",
        "Longitude": "8.76657",
        "Address": "REAL Station\nDKV-Nr: 0018261\nHusener Str. 121\nDE-33100 Paderborn\nTel.: 05251 61601"
    },
    {
        "Number": "7",
        "Latitude": "51.734733",
        "Longitude": "8.767004",
        "Address": "WESTFALEN Station\nDKV-Nr: 0096007\nDetmolder Str. 112\nDE-33100 Paderborn\nTel.: 05251 56824"
    },
    {
        "Number": "8",
        "Latitude": "51.706226",
        "Longitude": "8.777159",
        "Address": "ARAL Station\nDKV-Nr: 3470025\nWarburger Str. 128\nDE-33100 Paderborn\nTel.: 05251 62703"
    },
    {
        "Number": "9",
        "Latitude": "51.706638",
        "Longitude": "8.72941",
        "Address": "SHELL Station\nDKV-Nr: 0050087\nGr\u00fcner Weg 24\nDE-33098 Paderborn\nTel.: 05251 750079"
    },
    {
        "Number": "10",
        "Latitude": "51.72484",
        "Longitude": "8.79496",
        "Address": "RAIFFEISEN Station\nDKV-Nr: 3499173\nRandebrockstr. 1\nDE-33100 Paderborn\nTel.: 02921 39971"
    },
    {
        "Number": "11",
        "Latitude": "51.6981",
        "Longitude": "8.73232",
        "Address": "AVIA Station\nDKV-Nr: 0005012\nFrankfurter Weg 29\nDE-33106 Paderborn\nTel.: 05251 760268"
    },
    {
        "Number": "12",
        "Latitude": "51.70917",
        "Longitude": "8.71458",
        "Address": "TP24Automat\nDKV-Nr: 0081302\nBalhorner Feld 4\nDE-33106 Paderborn"
    },
    {
        "Number": "13",
        "Latitude": "51.7455849",
        "Longitude": "8.7415599",
        "Address": "ARAL Station\nDKV-Nr: 0010090\nMarienloher Str. 87\nDE-33104 Paderborn\nTel.: 05254 2430"
    },
    {
        "Number": "14",
        "Latitude": "51.693356",
        "Longitude": "8.736733",
        "Address": "RAIFFEISEN Station\nDKV-Nr: 3499175\nHaller Str. 4\nDE-33106 Paderborn\nTel.: 02921 39971"
    },
    {
        "Number": "15",
        "Latitude": "51.7453775",
        "Longitude": "8.731506",
        "Address": "ARAL Station\nDKV-Nr: 0010583\nDubelohstr. 143\nDE-33104 Paderborn\nTel.: 05254 939178"
    },
    {
        "Number": "16",
        "Latitude": "51.702381",
        "Longitude": "8.714696",
        "Address": "HOYER Station\nDKV-Nr: 0099257\nOberes Feld 13\nDE-33106 Paderborn"
    },
    {
        "Number": "17",
        "Latitude": "51.742802",
        "Longitude": "8.7077",
        "Address": "SHELL Station\nDKV-Nr: 0004682\nM\u00fcnsterstr. 7\nDE-33104 Paderborn\nTel.: 05254 977580"
    },
    {
        "Number": "18",
        "Latitude": "51.743227",
        "Longitude": "8.706585",
        "Address": "JET Station\nDKV-Nr: 0018777\nM\u00fcnsterstr. 13 - 15\nDE-33104 Paderborn\nTel.: 05254 6638134"
    },
    {
        "Number": "19",
        "Latitude": "51.683249",
        "Longitude": "8.721085",
        "Address": "ARAL Station\nDKV-Nr: 0070764\nBorchener Str. 336\nDE-33106 Paderborn\nTel.: 05251 892905"
    },
    {
        "Number": "20",
        "Latitude": "51.733788",
        "Longitude": "8.6892775",
        "Address": "TotalEnergies Station\nDKV-Nr: 0045430\nVon-Ketteler-Str. 13\nDE-33106 Paderborn\nTel.: 05254 5150"
    }
]