[
    {
        "Number": "1",
        "Latitude": "50.738295",
        "Longitude": "7.101143",
        "Address": "BFT Station\nDKV-Nr: 0092062\nK\u00f6lnstr. 10 - 16\nDE-53111 Bonn\nTel.: 0228 94498970"
    },
    {
        "Number": "2",
        "Latitude": "50.7463504",
        "Longitude": "7.0995962",
        "Address": "ARAL Station\nDKV-Nr: 0070956\nR\u00f6merstr. 102 - 110\nDE-53111 Bonn\nTel.: 0228 636321"
    },
    {
        "Number": "3",
        "Latitude": "50.7324683",
        "Longitude": "7.0822964",
        "Address": "SHELL Station\nDKV-Nr: 0050117\nEndenicher Str. 92\nDE-53115 Bonn\nTel.: 0228 696110"
    },
    {
        "Number": "4",
        "Latitude": "50.744928",
        "Longitude": "7.083859",
        "Address": "ED Station\nDKV-Nr: 0068029\nLievelingsweg 10\nDE-53119 Bonn\nTel.: 0228 676991"
    },
    {
        "Number": "5",
        "Latitude": "50.730591",
        "Longitude": "7.080039",
        "Address": "BFT Station\nDKV-Nr: 0092022\nEndenicher Str. 157\nDE-53115 Bonn\nTel.: 0228 7668982"
    },
    {
        "Number": "6",
        "Latitude": "50.743203",
        "Longitude": "7.078949",
        "Address": "ARAL Station\nDKV-Nr: 0070955\nPotsdamer Platz 2\nDE-53119 Bonn\nTel.: 0228 7668731"
    },
    {
        "Number": "7",
        "Latitude": "50.742186",
        "Longitude": "7.07755",
        "Address": "SVG Station\nDKV-Nr: 0105090\nPotsdamer Platz 7\nDE-53119 Bonn\nTel.: 0228 654851"
    },
    {
        "Number": "8",
        "Latitude": "50.739979",
        "Longitude": "7.075983",
        "Address": "JET Station\nDKV-Nr: 3418324\nBornheimer Str. 145\nDE-53119 Bonn\nTel.: 0228 655558"
    },
    {
        "Number": "9",
        "Latitude": "50.741082",
        "Longitude": "7.074616",
        "Address": "Mr. Wash Waschstation\nDKV-Nr: 9984031\nBornheimer Str. 153\nDE-53119 Bonn\nTel.: 0228 18999110"
    },
    {
        "Number": "10",
        "Latitude": "50.720567",
        "Longitude": "7.107591",
        "Address": "ESSO Station\nDKV-Nr: 0003112\nReuterstr. 108\nDE-53129 Bonn\nTel.: 0228 216797"
    },
    {
        "Number": "11",
        "Latitude": "50.745814",
        "Longitude": "7.124293",
        "Address": "SHELL Station\nDKV-Nr: 0050543\nSankt Augustiner Str. 118\nDE-53225 Bonn\nTel.: 0228 460786"
    },
    {
        "Number": "12",
        "Latitude": "50.746626",
        "Longitude": "7.124172",
        "Address": "ESSO Station\nDKV-Nr: 0003808\nSankt Augustiner Str. 145\nDE-53225 Bonn\nTel.: 0228 476790"
    },
    {
        "Number": "13",
        "Latitude": "50.7181406",
        "Longitude": "7.091131",
        "Address": "ARAL Station\nDKV-Nr: 0010738\nIm Wingert 20\nDE-53115 Bonn\nTel.: 0228 2123 48"
    },
    {
        "Number": "14",
        "Latitude": "50.734826",
        "Longitude": "7.13144",
        "Address": "SHELL Station\nDKV-Nr: 0050542\nK\u00f6nigswinterer Str. 90\nDE-53227 Bonn\nTel.: 0228 946540"
    },
    {
        "Number": "15",
        "Latitude": "50.75213",
        "Longitude": "7.073853",
        "Address": "ESSO Station\nDKV-Nr: 0003674\nK\u00f6lnstr. 455\nDE-53117 Bonn\nTel.: 0228 670463"
    },
    {
        "Number": "16",
        "Latitude": "50.7474127",
        "Longitude": "7.0670927",
        "Address": "ARAL Station\nDKV-Nr: 0010356\nLandsberger Str. 2\nDE-53119 Bonn\nTel.: 0228 661806"
    },
    {
        "Number": "17",
        "Latitude": "50.72638",
        "Longitude": "7.06774",
        "Address": "H2 MOBILITY Wasserstoff Station\nDKV-Nr: 3493010\nErich-Hoffmann-Stra\u00dfe 9\nDE-53121 Bonn"
    },
    {
        "Number": "18",
        "Latitude": "50.7261456",
        "Longitude": "7.0674878",
        "Address": "SHELL Station\nDKV-Nr: 3404528\nErich-Hoffmann-Str. 9\nDE-53121 Bonn\nTel.: 0228 616660"
    },
    {
        "Number": "19",
        "Latitude": "50.709144",
        "Longitude": "7.109769",
        "Address": "HEM Station\nDKV-Nr: 0058034\nHausdorffstr. 223\nDE-53129 Bonn\nTel.: 0228 235520"
    },
    {
        "Number": "20",
        "Latitude": "50.7192917",
        "Longitude": "7.0567587",
        "Address": "ARAL Station\nDKV-Nr: 0010572\nRochusstr. 46\nDE-53123 Bonn\nTel.: 0228 624902"
    },
    {
        "Number": "21",
        "Latitude": "50.71184",
        "Longitude": "7.06713",
        "Address": "AGIP Station\nDKV-Nr: 3406394\nProvinzialstr. 55\nDE-53127 Bonn\nTel.: 0228254392"
    },
    {
        "Number": "22",
        "Latitude": "50.711814",
        "Longitude": "7.067181",
        "Address": "TotalEnergies Station\nDKV-Nr: 3498120\nProvinzialstr. 55\nDE-53127 Bonn\nTel.: 0228 254392"
    },
    {
        "Number": "23",
        "Latitude": "50.741833",
        "Longitude": "7.149664",
        "Address": "CLASSIC Station\nDKV-Nr: 0082166\nHoltorfer Str. 11\nDE-53229 Bonn\nTel.: 04251 812207"
    },
    {
        "Number": "24",
        "Latitude": "50.762407",
        "Longitude": "7.056833",
        "Address": "SHELL Station\nDKV-Nr: 3404619\nK\u00f6lnstr. 653\nDE-53117 Bonn\nTel.: 0228 673966"
    },
    {
        "Number": "25",
        "Latitude": "50.702757",
        "Longitude": "7.116083",
        "Address": "TotalEnergies Station\nDKV-Nr: 0051105\nKessenicher Str. 212\nDE-53129 Bonn\nTel.: 0228 231116"
    },
    {
        "Number": "26",
        "Latitude": "50.7244001",
        "Longitude": "7.1526895",
        "Address": "ARAL Station\nDKV-Nr: 0070930\nK\u00f6nigswinterer Str. 409\nDE-53227 Bonn\nTel.: 0228 442219"
    },
    {
        "Number": "27",
        "Latitude": "50.751893",
        "Longitude": "7.155592",
        "Address": "Q1 Station\nDKV-Nr: 0049199\nFr\u00e4nkische Str. 15\nDE-53229 Bonn\nTel.: 0228 43378870"
    },
    {
        "Number": "28",
        "Latitude": "50.709432",
        "Longitude": "7.054801",
        "Address": "TotalEnergies Station\nDKV-Nr: 3445090\nJulius-Leber-Str. 2 c\nDE-53123 Bonn\nTel.: 0228 96285704"
    },
    {
        "Number": "29",
        "Latitude": "50.701211",
        "Longitude": "7.136537",
        "Address": "ARAL Station\nDKV-Nr: 0010208\nGodesberger Allee 131\nDE-53175 Bonn\nTel.: 0228 376016"
    },
    {
        "Number": "30",
        "Latitude": "50.780204",
        "Longitude": "7.083199",
        "Address": "MUNDORF Station\nDKV-Nr: 0073016\nHertzstr. 4\nDE-53844 Troisdorf\nTel.: 0228 9455360"
    },
    {
        "Number": "31",
        "Latitude": "50.714305",
        "Longitude": "7.039477",
        "Address": "JET Station\nDKV-Nr: 3418329\nRochusstr. 337\nDE-53123 Bonn\nTel.: 0228 9862052"
    },
    {
        "Number": "32",
        "Latitude": "50.712218",
        "Longitude": "7.040691",
        "Address": "TotalEnergies Station\nDKV-Nr: 0051381\nKonrad-Adenauer-Damm 200\nDE-53123 Bonn\nTel.: 0228 644806"
    }
]